{"name": "北京师范大学房山裸地径流小区监测点", "id": "02007", "phone": "16C1561783", "type": "径流小区A型径流泥沙监测", "model": "", "location": "北京市房山区窦店镇大窦路1号", "photo": "", "belong_to": "北京师范大学房山试验基地"}
{"name": "黑龙江省鹤山农场九三水保站", "id": "02144", "phone": "1870004145", "type": "径流小区A型径流泥沙监测", "model": "", "location": "黑龙江省嫩江市鹤山农场九三水土保持试验站", "photo": "", "belong_to": "北京师范大学房山试验基地"}
{"name": "黑龙江省鹤山农场九三水保站", "id": "02145", "phone": "1870004137", "type": "径流小区A型径流泥沙监测", "model": "", "location": "黑龙江省嫩江市鹤山农场九三水土保持试验站", "photo": "", "belong_to": "北京师范大学房山试验基地"}
{"name": "黑龙江省鹤山农场九三水保站", "id": "02146", "phone": "1870004140", "type": "径流小区A型径流泥沙监测", "model": "", "location": "黑龙江省嫩江市鹤山农场九三水土保持试验站", "photo": "", "belong_to": "北京师范大学房山试验基地"}
{"name": "黑龙江省鹤山农场九三水保站", "id": "02147", "phone": "1870004143", "type": "径流小区A型径流泥沙监测", "model": "", "location": "黑龙江省嫩江市鹤山农场九三水土保持试验站", "photo": "", "belong_to": "北京师范大学房山试验基地"}
{"name": "黑龙江省鹤山农场九三水保站", "id": "02148", "phone": "1870004144", "type": "径流小区A型径流泥沙监测", "model": "", "location": "黑龙江省嫩江市鹤山农场九三水土保持试验站", "photo": "", "belong_to": "北京师范大学房山试验基地"}
{"name": "黑龙江省鹤山农场九三水保站", "id": "02173", "phone": "1870004139", "type": "径流小区A型径流泥沙监测", "model": "", "location": "黑龙江省嫩江市鹤山农场九三水土保持试验站", "photo": "", "belong_to": "北京师范大学房山试验基地"}
{"name": "北京师范大学房山试验基地", "id": "02505", "phone": "1870004169", "type": "径流小区A型径流泥沙监测", "model": "", "location": "北京市房山区窦店镇大窦路1号", "photo": "", "belong_to": "北京师范大学房山试验基地"}
{"name": "黑龙江省鹤山农场九三水保站", "id": "03050", "phone": "1870004080", "type": "径流小区B型径流泥沙监测", "model": "", "location": "黑龙江省嫩江市鹤山农场九三水土保持试验站", "photo": "", "belong_to": "北京师范大学房山试验基地"}
{"name": "黑龙江省鹤山农场九三水保站", "id": "03103", "phone": "1870004165", "type": "径流小区B型径流泥沙监测", "model": "", "location": "黑龙江省嫩江市鹤山农场九三水土保持试验站", "photo": "", "belong_to": "北京师范大学房山试验基地"}
{"name": "黑龙江省鹤山农场九三水保站", "id": "03104", "phone": "1870004166", "type": "径流小区B型径流泥沙监测", "model": "", "location": "黑龙江省嫩江市鹤山农场九三水土保持试验站", "photo": "", "belong_to": "北京师范大学房山试验基地"}
{"name": "黑龙江省鹤山农场九三水保站", "id": "03105", "phone": "1870004167", "type": "径流小区B型径流泥沙监测", "model": "", "location": "黑龙江省嫩江市鹤山农场九三水土保持试验站", "photo": "", "belong_to": "北京师范大学房山试验基地"}
{"name": "黑龙江省鹤山农场九三水保站", "id": "03106", "phone": "1870004168", "type": "径流小区B型径流泥沙监测", "model": "", "location": "黑龙江省嫩江市鹤山农场九三水土保持试验站", "photo": "", "belong_to": "北京师范大学房山试验基地"}
{"name": "北京师范大学房山监测点", "id": "04005", "phone": "16C1561826", "type": "便携式泥沙测量仪", "model": "", "location": "北京房山", "photo": "", "belong_to": "北京师范大学房山试验基地"}
{"name": "黑龙江省鹤山农场九三水保站", "id": "16002", "phone": "", "type": "全自动称重式雨雪量计", "model": "", "location": "黑龙江省嫩江市鹤山农场九三水土保持试验站", "photo": "", "belong_to": "北京师范大学房山试验基地"}
